[
  {
    "name": "highlands",
    "subRegions": [
      {
        "name": "sutherland",
        "subSubRegions": [
          {
            "name": "caithness",
            "lat": 58.4389,
            "lon": -3.0937
          },
          {
            "name": "durness",
            "lat": 58.5686,
            "lon": -4.7469
          },
          {
            "name": "tongue",
            "lat": 58.4761,
            "lon": -4.4175
          },
          {
            "name": "scourie",
            "lat": 58.3518,
            "lon": -5.1521
          },
          {
            "name": "wick",
            "lat": 58.4389,
            "lon": -3.0937
          },
          {
            "name": "thurso",
            "lat": 58.5936,
            "lon": -3.5221
          },
          {
            "name": "dornoch",
            "lat": 57.8791,
            "lon": -4.028
          },
          {
            "name": "brora",
            "lat": 58.0122,
            "lon": -3.8525
          },
          {
            "name": "lairg",
            "lat": 58.0221,
            "lon": -4.4024
          }
        ]
      },
      {
        "name": "ullapool",
        "subSubRegions": [
          {
            "name": "lochinver",
            "lat": 58.1462,
            "lon": -5.2426
          },
          {
            "name": "assynt",
            "lat": 58.1729,
            "lon": -5.0305
          },
          {
            "name": "coigach",
            "lat": 58.0333,
            "lon": -5.3167
          },
          {
            "name": "ullapool",
            "lat": 57.8954,
            "lon": -5.1613
          },
          {
            "name": "the fannichs",
            "lat": 57.7001,
            "lon": -5.0168
          },
          {
            "name": "dundonnell",
            "lat": 57.8386,
            "lon": -5.2127
          },
          {
            "name": "easter ross",
            "lat": 58.277,
            "lon": -3.779
          },
          {
            "name": "tain",
            "lat": 57.8115,
            "lon": -4.0552
          },
          {
            "name": "portmahomack",
            "lat": 57.8358,
            "lon": -3.8275
          }
        ]
      },
      {
        "name": "torridon",
        "subSubRegions": [
          {
            "name": "gairloch",
            "lat": 57.7282,
            "lon": -5.6939
          },
          {
            "name": "poolewe",
            "lat": 57.7651,
            "lon": -5.6052
          },
          {
            "name": "aultbea",
            "lat": 57.8408,
            "lon": -5.5873
          },
          {
            "name": "torridon",
            "lat": 57.5469,
            "lon": -5.5134
          },
          {
            "name": "shieldaig",
            "lat": 57.5251,
            "lon": -5.6479
          },
          {
            "name": "kinlochewe",
            "lat": 57.604,
            "lon": -5.2992
          },
          {
            "name": "lochcarron",
            "lat": 57.3977,
            "lon": -5.5031
          },
          {
            "name": "strathcarron",
            "lat": 57.4245,
            "lon": -5.4284
          },
          {
            "name": "achnasheen",
            "lat": 57.5786,
            "lon": -5.0788
          }
        ]
      },
      {
        "name": "loch ness",
        "subSubRegions": [
          {
            "name": "loch ness",
            "lat": 57.3229,
            "lon": -4.4244
          },
          {
            "name": "glen affric",
            "lat": 57.252,
            "lon": -5.0644
          },
          {
            "name": "cannich",
            "lat": 57.3471,
            "lon": -4.763
          },
          {
            "name": "strathfarrar",
            "lat": 57.4167,
            "lon": -4.8333
          },
          {
            "name": "black isle",
            "lat": 57.5833,
            "lon": -4.25
          },
          {
            "name": "dingwall",
            "lat": 57.5953,
            "lon": -4.4284
          },
          {
            "name": "strathpeffer",
            "lat": 57.5851,
            "lon": -4.5397
          },
          {
            "name": "garve",
            "lat": 57.6171,
            "lon": -4.69
          },
          {
            "name": "inverness",
            "lat": 57.4778,
            "lon": -4.2247
          }
        ]
      },
      {
        "name": "kintail",
        "subSubRegions": [
          {
            "name": "glen shiel",
            "lat": 57.1667,
            "lon": -5.3667
          },
          {
            "name": "dornie",
            "lat": 57.2791,
            "lon": -5.5155
          },
          {
            "name": "cluanie",
            "lat": 57.1167,
            "lon": -5.0833
          },
          {
            "name": "kyle of lochalsh",
            "lat": 57.2826,
            "lon": -5.7143
          },
          {
            "name": "plockton",
            "lat": 57.3406,
            "lon": -5.6491
          },
          {
            "name": "glenelg",
            "lat": 57.2139,
            "lon": -5.6203
          },
          {
            "name": "arnisdale",
            "lat": 57.1344,
            "lon": -5.5662
          }
        ]
      },
      {
        "name": "moray",
        "subSubRegions": [
          {
            "name": "nairn",
            "lat": 57.5864,
            "lon": -3.8685
          },
          {
            "name": "forres",
            "lat": 57.6098,
            "lon": -3.62
          },
          {
            "name": "elgin",
            "lat": 57.6495,
            "lon": -3.3185
          },
          {
            "name": "lossiemouth",
            "lat": 57.7216,
            "lon": -3.2803
          },
          {
            "name": "buckie",
            "lat": 57.6774,
            "lon": -2.9673
          },
          {
            "name": "dufftown",
            "lat": 57.4436,
            "lon": -3.1284
          },
          {
            "name": "keith",
            "lat": 57.5431,
            "lon": -2.9515
          }
        ]
      },
      {
        "name": "aberdeenshire",
        "subSubRegions": [
          {
            "name": "banff",
            "lat": 57.6665,
            "lon": -2.524
          },
          {
            "name": "buchan",
            "lat": 57.4578,
            "lon": -1.8131
          },
          {
            "name": "huntly",
            "lat": 57.4459,
            "lon": -2.7878
          },
          {
            "name": "alford",
            "lat": 57.2333,
            "lon": -2.7048
          },
          {
            "name": "inverurie",
            "lat": 57.2835,
            "lon": -2.374
          },
          {
            "name": "stonehaven",
            "lat": 56.9637,
            "lon": -2.2093
          },
          {
            "name": "banchory",
            "lat": 57.0539,
            "lon": -2.491
          },
          {
            "name": "deeside",
            "lat": 53.1997,
            "lon": -3.033
          },
          {
            "name": "aberdeen city",
            "lat": 57.1499,
            "lon": -2.0938
          }
        ]
      },
      {
        "name": "fort william, lochaber and lorn",
        "subSubRegions": [
          {
            "name": "fort william",
            "lat": 56.8198,
            "lon": -5.1052
          },
          {
            "name": "glen nevis",
            "lat": 56.7969,
            "lon": -5.0036
          },
          {
            "name": "spean bridge",
            "lat": 56.8957,
            "lon": -4.9151
          },
          {
            "name": "roy bridge",
            "lat": 56.8937,
            "lon": -4.838
          },
          {
            "name": "glencoe",
            "lat": 56.6826,
            "lon": -5.1023
          },
          {
            "name": "kinlochleven",
            "lat": 56.7131,
            "lon": -4.9638
          },
          {
            "name": "loch lochy to knoydart",
            "lat": 57.07,
            "lon": -5.66
          },
          {
            "name": "ardnamurchan",
            "lat": 56.7167,
            "lon": -6.0
          },
          {
            "name": "strontian",
            "lat": 56.6954,
            "lon": -5.5712
          },
          {
            "name": "mallaig",
            "lat": 57.0038,
            "lon": -5.8272
          },
          {
            "name": "arisaig",
            "lat": 56.9101,
            "lon": -5.8427
          },
          {
            "name": "glenfinnan",
            "lat": 56.8714,
            "lon": -5.4383
          }
        ]
      },
      {
        "name": "cairngorms",
        "subSubRegions": [
          {
            "name": "kingussie",
            "lat": 57.0814,
            "lon": -4.0545
          },
          {
            "name": "newtonmore",
            "lat": 57.0664,
            "lon": -4.1215
          },
          {
            "name": "dalwhinnie",
            "lat": 56.94,
            "lon": -4.2391
          },
          {
            "name": "aviemore",
            "lat": 57.1945,
            "lon": -3.8238
          },
          {
            "name": "rothiemurchus",
            "lat": 57.1762,
            "lon": -3.8174
          },
          {
            "name": "carrbridge",
            "lat": 57.2845,
            "lon": -3.8087
          },
          {
            "name": "grantown-on-spey",
            "lat": 57.3304,
            "lon": -3.6096
          },
          {
            "name": "nethy bridge",
            "lat": 57.2636,
            "lon": -3.6541
          },
          {
            "name": "boat of garten",
            "lat": 57.2487,
            "lon": -3.7533
          },
          {
            "name": "braemar",
            "lat": 57.0065,
            "lon": -3.3979
          },
          {
            "name": "upper deeside",
            "lat": 53.1997,
            "lon": -3.033
          },
          {
            "name": "ballater",
            "lat": 57.05,
            "lon": -3.0366
          },
          {
            "name": "balmoral",
            "lat": 57.0397,
            "lon": -3.2292
          },
          {
            "name": "glenlivet",
            "lat": 57.3434,
            "lon": -3.3386
          },
          {
            "name": "tomintoul",
            "lat": 57.2508,
            "lon": -3.378
          },
          {
            "name": "strathdon",
            "lat": 57.1991,
            "lon": -3.0746
          }
        ]
      },
      {
        "name": "perthshire",
        "subSubRegions": [
          {
            "name": "pitlochry",
            "lat": 56.7044,
            "lon": -3.7297
          },
          {
            "name": "blair atholl",
            "lat": 56.7682,
            "lon": -3.8434
          },
          {
            "name": "loch rannoch",
            "lat": 56.6977,
            "lon": -4.2283
          },
          {
            "name": "loch tay",
            "lat": 56.5238,
            "lon": -4.1361
          },
          {
            "name": "aberfeldy",
            "lat": 56.6218,
            "lon": -3.867
          },
          {
            "name": "killin",
            "lat": 56.4693,
            "lon": -4.3192
          },
          {
            "name": "glen lyon",
            "lat": 56.6015,
            "lon": -4.0729
          },
          {
            "name": "dunkeld",
            "lat": 56.5677,
            "lon": -3.5862
          },
          {
            "name": "blairgowrie",
            "lat": 56.5894,
            "lon": -3.3378
          },
          {
            "name": "crieff",
            "lat": 56.3766,
            "lon": -3.842
          },
          {
            "name": "comrie",
            "lat": 56.378,
            "lon": -3.9952
          },
          {
            "name": "auchterarder",
            "lat": 56.3006,
            "lon": -3.7
          },
          {
            "name": "perth",
            "lat": 56.395,
            "lon": -3.4308
          },
          {
            "name": "kinross",
            "lat": 56.2061,
            "lon": -3.4229
          }
        ]
      },
      {
        "name": "argyll and bute",
        "subSubRegions": [
          {
            "name": "oban",
            "lat": 56.4152,
            "lon": -5.471
          },
          {
            "name": "tyndrum",
            "lat": 56.4361,
            "lon": -4.7118
          },
          {
            "name": "bridge of orchy",
            "lat": 56.5141,
            "lon": -4.7661
          },
          {
            "name": "dalmally",
            "lat": 56.4023,
            "lon": -4.9722
          },
          {
            "name": "inveraray",
            "lat": 56.2318,
            "lon": -5.0754
          },
          {
            "name": "lochgilphead",
            "lat": 56.0383,
            "lon": -5.4323
          },
          {
            "name": "cowal",
            "lat": 56.0211,
            "lon": -5.063
          },
          {
            "name": "dunoon",
            "lat": 55.951,
            "lon": -4.9262
          },
          {
            "name": "kintyre",
            "lat": 55.565,
            "lon": -5.566
          },
          {
            "name": "tarbert",
            "lat": 55.8632,
            "lon": -5.4156
          },
          {
            "name": "campbeltown",
            "lat": 55.4241,
            "lon": -5.6054
          },
          {
            "name": "isle of bute",
            "lat": 55.8274,
            "lon": -5.0936
          },
          {
            "name": "isle of gigha",
            "lat": 55.6845,
            "lon": -5.7491
          },
          {
            "name": "isle of lismore",
            "lat": 56.5006,
            "lon": -5.5263
          }
        ]
      },
      {
        "name": "loch lomond and the trossachs",
        "subSubRegions": [
          {
            "name": "the trossachs",
            "lat": 56.2343,
            "lon": -4.41
          },
          {
            "name": "callander",
            "lat": 56.2451,
            "lon": -4.2117
          },
          {
            "name": "aberfoyle",
            "lat": 56.1787,
            "lon": -4.3846
          },
          {
            "name": "arrochar",
            "lat": 56.201,
            "lon": -4.7455
          },
          {
            "name": "crianlarich",
            "lat": 56.3931,
            "lon": -4.619
          },
          {
            "name": "drymen",
            "lat": 56.0655,
            "lon": -4.45
          },
          {
            "name": "luss",
            "lat": 56.1015,
            "lon": -4.6423
          },
          {
            "name": "balloch",
            "lat": 56.0027,
            "lon": -4.5801
          },
          {
            "name": "balmaha",
            "lat": 56.0837,
            "lon": -4.5362
          },
          {
            "name": "strathyre",
            "lat": 56.3245,
            "lon": -4.3298
          },
          {
            "name": "lochearnhead",
            "lat": 56.3888,
            "lon": -4.2861
          }
        ]
      },
      {
        "name": "angus",
        "subSubRegions": [
          {
            "name": "angus glens",
            "lat": 56.698,
            "lon": -2.9124
          },
          {
            "name": "forfar",
            "lat": 56.6436,
            "lon": -2.8891
          },
          {
            "name": "kirriemuir",
            "lat": 56.6751,
            "lon": -3.0035
          },
          {
            "name": "dundee",
            "lat": 56.462,
            "lon": -2.9707
          },
          {
            "name": "arbroath",
            "lat": 56.5591,
            "lon": -2.5915
          },
          {
            "name": "montrose",
            "lat": 56.7069,
            "lon": -2.4661
          }
        ]
      }
    ]
  },
  {
    "name": "islands",
    "subRegions": [
      {
        "name": "Isle of Skye and Raasay",
        "subSubRegions": [
          {
            "name": "Trotternish",
            "lat": 57.6441,
            "lon": -6.2658
          },
          {
            "name": "Portree",
            "lat": 57.4125,
            "lon": -6.196
          },
          {
            "name": "Braes",
            "lat": 60.3969,
            "lon": -1.3541
          },
          {
            "name": "Dunvegan",
            "lat": 57.4366,
            "lon": -6.5814
          },
          {
            "name": "Waternish",
            "lat": 57.5099,
            "lon": -6.5582
          },
          {
            "name": "Duirinish",
            "lat": 57.3176,
            "lon": -5.6794
          },
          {
            "name": "Glendale",
            "lat": 57.4491,
            "lon": -6.7063
          },
          {
            "name": "Cuillin",
            "lat": 57.2,
            "lon": -6.2
          },
          {
            "name": "Minginish",
            "lat": 57.2423,
            "lon": -6.2846
          },
          {
            "name": "Broadford",
            "lat": 57.2414,
            "lon": -5.9097
          },
          {
            "name": "Redhills",
            "lat": 54.6491,
            "lon": -2.7694
          },
          {
            "name": "Elgol",
            "lat": 57.1493,
            "lon": -6.0989
          },
          {
            "name": "Sleat",
            "lat": 57.1092,
            "lon": -5.7758
          },
          {
            "name": "Armadale",
            "lat": 55.8977,
            "lon": -3.7022
          },
          {
            "name": "Kyleakin",
            "lat": 57.2725,
            "lon": -5.7288
          },
          {
            "name": "Isle of Raasay",
            "lat": 57.397,
            "lon": -6.0481
          }
        ]
      },
      {
        "name": "Isle of Mull, Ulva and Iona",
        "subSubRegions": [
          {
            "name": "Tobermory",
            "lat": 56.6228,
            "lon": -6.0723
          },
          {
            "name": "North Mull",
            "lat": 56.45,
            "lon": -6.0
          },
          {
            "name": "Salen",
            "lat": 56.5166,
            "lon": -5.9461
          },
          {
            "name": "Craignure",
            "lat": 56.4683,
            "lon": -5.6981
          },
          {
            "name": "Central Mull",
            "lat": 56.45,
            "lon": -6.0
          },
          {
            "name": "Iona",
            "lat": 56.3347,
            "lon": -6.4041
          },
          {
            "name": "Ross of Mull",
            "lat": 56.3,
            "lon": -6.2333
          },
          {
            "name": "Isle of Ulva",
            "lat": 56.4797,
            "lon": -6.2049
          }
        ]
      },
      {
        "name": "Outer Hebrides",
        "subSubRegions": [
          {
            "name": "Isle of Lewis",
            "lat": 58.2416,
            "lon": -6.6616
          },
          {
            "name": "Isle of Harris",
            "lat": 57.9933,
            "lon": -6.8736
          },
          {
            "name": "North Uist",
            "lat": 57.5704,
            "lon": -7.2812
          },
          {
            "name": "Berneray",
            "lat": 57.7185,
            "lon": -7.1824
          },
          {
            "name": "South Uist",
            "lat": 57.2642,
            "lon": -7.3312
          },
          {
            "name": "Benbecula",
            "lat": 57.4565,
            "lon": -7.282
          },
          {
            "name": "Eriskay",
            "lat": 57.0727,
            "lon": -7.2924
          },
          {
            "name": "Barra",
            "lat": 56.9809,
            "lon": -7.4568
          },
          {
            "name": "Vatersay",
            "lat": 56.9336,
            "lon": -7.5363
          }
        ]
      },
      {
        "name": "Orkney",
        "subSubRegions": [
          {
            "name": "Mainland",
            "lat": 58.9809,
            "lon": -2.9605
          },
          {
            "name": "South Ronaldsay",
            "lat": 58.8068,
            "lon": -2.9473
          },
          {
            "name": "Burray",
            "lat": 58.8507,
            "lon": -2.908
          },
          {
            "name": "Hoy",
            "lat": 58.855,
            "lon": -3.3256
          },
          {
            "name": "South Walls",
            "lat": 58.79,
            "lon": -3.18
          },
          {
            "name": "Flotta",
            "lat": 58.8287,
            "lon": -3.1155
          },
          {
            "name": "Graemsay",
            "lat": 58.9276,
            "lon": -3.2903
          },
          {
            "name": "Westray",
            "lat": 59.2942,
            "lon": -2.9801
          },
          {
            "name": "Papa Westray",
            "lat": 59.3507,
            "lon": -2.9004
          },
          {
            "name": "Sanday",
            "lat": 59.2458,
            "lon": -2.5492
          },
          {
            "name": "North Ronaldsay",
            "lat": 59.372,
            "lon": -2.4189
          },
          {
            "name": "Shapinsay",
            "lat": 59.0441,
            "lon": -2.8531
          },
          {
            "name": "Stronsay",
            "lat": 59.1069,
            "lon": -2.6001
          },
          {
            "name": "Eday",
            "lat": 59.1838,
            "lon": -2.771
          },
          {
            "name": "Rousay",
            "lat": 59.1495,
            "lon": -3.0202
          },
          {
            "name": "Egilsay",
            "lat": 59.1522,
            "lon": -2.9262
          },
          {
            "name": "Wyre",
            "lat": 53.8996,
            "lon": -2.8093
          }
        ]
      },
      {
        "name": "Shetland",
        "subSubRegions": [
          {
            "name": "Unst",
            "lat": 60.7416,
            "lon": -0.9049
          },
          {
            "name": "Yell",
            "lat": 60.5543,
            "lon": -1.0991
          },
          {
            "name": "Fetlar",
            "lat": 60.6167,
            "lon": -0.8667
          },
          {
            "name": "North Mainland",
            "lat": 60.5909,
            "lon": -1.3335
          },
          {
            "name": "Muckle Roe",
            "lat": 60.3667,
            "lon": -1.425
          },
          {
            "name": "Whalsay",
            "lat": 60.3523,
            "lon": -0.982
          },
          {
            "name": "Skerries",
            "lat": 53.5806,
            "lon": -6.1079
          },
          {
            "name": "Central Mainland",
            "lat": 60.5297,
            "lon": -1.2659
          },
          {
            "name": "Papa Stour",
            "lat": 60.3306,
            "lon": -1.6949
          },
          {
            "name": "Bressay",
            "lat": 60.1518,
            "lon": -1.088
          },
          {
            "name": "Noss",
            "lat": 60.1455,
            "lon": -1.0197
          },
          {
            "name": "South Mainland",
            "lat": 60.5297,
            "lon": -1.2659
          },
          {
            "name": "Mousa",
            "lat": 59.999,
            "lon": -1.1753
          },
          {
            "name": "Foula",
            "lat": 60.1313,
            "lon": -2.0695
          },
          {
            "name": "Fair Isle",
            "lat": 59.5339,
            "lon": -1.6333
          }
        ]
      },
      {
        "name": "Isle of Arran",
        "subSubRegions": [
          {
            "name": "Brodick",
            "lat": 55.5751,
            "lon": -5.1452
          },
          {
            "name": "Goatfell",
            "lat": 55.6258,
            "lon": -5.1919
          },
          {
            "name": "Lochranza",
            "lat": 55.703,
            "lon": -5.2907
          },
          {
            "name": "Pirnmill Hills",
            "lat": 55.6451,
            "lon": -5.3821
          },
          {
            "name": "Lamlash",
            "lat": 55.5382,
            "lon": -5.1216
          },
          {
            "name": "Whiting Bay",
            "lat": 55.4866,
            "lon": -5.098
          },
          {
            "name": "South Arran",
            "lat": 55.5806,
            "lon": -5.2109
          }
        ]
      },
      {
        "name": "Small Isles",
        "subSubRegions": [
          {
            "name": "Isle of Tiree",
            "lat": 56.4932,
            "lon": -6.907
          },
          {
            "name": "Isle of Coll",
            "lat": 56.6246,
            "lon": -6.5619
          },
          {
            "name": "Isle of Eigg",
            "lat": 56.8937,
            "lon": -6.1533
          },
          {
            "name": "Isle of Rum",
            "lat": 57.0095,
            "lon": -6.3239
          },
          {
            "name": "Isle of Canna",
            "lat": 57.063,
            "lon": -6.5487
          },
          {
            "name": "Isle of Muck",
            "lat": 56.8358,
            "lon": -6.2384
          }
        ]
      },
      {
        "name": "Islay, Jura and Colonsay",
        "subSubRegions": [
          {
            "name": "Islay",
            "lat": 55.7363,
            "lon": -6.1771
          },
          {
            "name": "Jura",
            "lat": 55.9042,
            "lon": -5.9414
          },
          {
            "name": "Colonsay",
            "lat": 56.081,
            "lon": -6.2118
          }
        ]
      }
    ]
  },
  {
    "name": "lowlands",
    "subRegions": [
      {
        "name": "Fife and Stirling",
        "subSubRegions": [
          {
            "name": "St. Andrews",
            "lat": 56.3398,
            "lon": -2.7967
          },
          {
            "name": "East Neuk",
            "lat": 56.2517,
            "lon": -2.7291
          },
          {
            "name": "Lomond Hills",
            "lat": 56.2422,
            "lon": -3.2213
          },
          {
            "name": "Central Fife",
            "lat": 56.2082,
            "lon": -3.1495
          },
          {
            "name": "Stirling",
            "lat": 56.1165,
            "lon": -3.9369
          },
          {
            "name": "Clackmannan",
            "lat": 56.1075,
            "lon": -3.7529
          },
          {
            "name": "Ochils",
            "lat": 56.2333,
            "lon": -3.6667
          },
          {
            "name": "Falkirk",
            "lat": 56.0019,
            "lon": -3.7839
          }
        ]
      },
      {
        "name": "Glasgow, Ayrshire and Lanark",
        "subSubRegions": [
          {
            "name": "Glasgow",
            "lat": 55.8642,
            "lon": -4.2518
          },
          {
            "name": "Inverclyde",
            "lat": 55.9317,
            "lon": -4.68
          },
          {
            "name": "Campsies",
            "lat": 56.0167,
            "lon": -4.3
          },
          {
            "name": "Kilpatricks",
            "lat": 55.9667,
            "lon": -4.4333
          },
          {
            "name": "Gargunnock Hills",
            "lat": 56.0786,
            "lon": -4.2094
          },
          {
            "name": "Ayrshire",
            "lat": 55.365,
            "lon": -4.668
          },
          {
            "name": "Lanarkshire",
            "lat": 55.6736,
            "lon": -3.782
          }
        ]
      },
      {
        "name": "Edinburgh and Lothian",
        "subSubRegions": [
          {
            "name": "Edinburgh",
            "lat": 55.9533,
            "lon": -3.1883
          },
          {
            "name": "East Lothian",
            "lat": 55.9587,
            "lon": -2.7749
          },
          {
            "name": "North Berwick",
            "lat": 56.0584,
            "lon": -2.7196
          },
          {
            "name": "Dunbar",
            "lat": 56.0021,
            "lon": -2.5167
          },
          {
            "name": "Pentland Hills",
            "lat": 55.7667,
            "lon": -3.4167
          },
          {
            "name": "Mid and West Lothian",
            "lat": 55.907,
            "lon": -3.5517
          }
        ]
      },
      {
        "name": "Galloway and Dumfries",
        "subSubRegions": [
          {
            "name": "Newton Stewart",
            "lat": 54.9603,
            "lon": -4.4832
          },
          {
            "name": "Wigtown",
            "lat": 54.8672,
            "lon": -4.4442
          },
          {
            "name": "Stranraer",
            "lat": 54.9034,
            "lon": -5.0241
          },
          {
            "name": "Castle Douglas",
            "lat": 54.9404,
            "lon": -3.9314
          },
          {
            "name": "Dalbeattie",
            "lat": 54.9342,
            "lon": -3.8225
          },
          {
            "name": "Kirkcudbright",
            "lat": 54.8376,
            "lon": -4.0488
          },
          {
            "name": "Dumfries",
            "lat": 55.0709,
            "lon": -3.6051
          },
          {
            "name": "Thornhill",
            "lat": 55.2459,
            "lon": -3.7691
          },
          {
            "name": "Moffat",
            "lat": 55.3352,
            "lon": -3.4403
          },
          {
            "name": "Langholm",
            "lat": 55.1531,
            "lon": -2.9989
          }
        ]
      },
      {
        "name": "Scottish Borders",
        "subSubRegions": [
          {
            "name": "Peebles",
            "lat": 55.6531,
            "lon": -3.1936
          },
          {
            "name": "Innerleithen",
            "lat": 55.624,
            "lon": -3.0649
          },
          {
            "name": "Melrose",
            "lat": 55.5987,
            "lon": -2.7219
          },
          {
            "name": "Selkirk",
            "lat": 55.5507,
            "lon": -2.8385
          },
          {
            "name": "Kelso",
            "lat": 55.6,
            "lon": -2.4322
          },
          {
            "name": "Hawick",
            "lat": 55.4271,
            "lon": -2.7809
          },
          {
            "name": "Newcastleton",
            "lat": 55.1794,
            "lon": -2.8133
          },
          {
            "name": "Eyemouth",
            "lat": 55.8691,
            "lon": -2.0911
          },
          {
            "name": "Coldstream",
            "lat": 55.6513,
            "lon": -2.2534
          }
        ]
      }
    ]
  }
]
