[
  {
    "name": "Meall nan Tri Tighearnan",
    "latitude": 56.5383,
    "longitude": -5.0177,
    "osGrid": "NN145425",
    "elevation": 2927,
    "prominence": 230,
    "isolation": 0.38,
    "summit": "Cairn"
  },
  {
    "name": "Meall Tarsuinn",
    "latitude": 56.5607,
    "longitude": -4.9644,
    "osGrid": "NN179449",
    "elevation": 2877,
    "prominence": 302,
    "isolation": 0.48,
    "summit": "Cairn"
  },
  {
    "name": "Beinn Trilleachan North-East Top",
    "latitude": 56.5554,
    "longitude": -5.0995,
    "osGrid": null,
    "elevation": 2516,
    "prominence": 242,
    "isolation": 0.59,
    "summit": "Cairn"
  },
  {
    "name": "Beinn Toaig",
    "latitude": 56.5694,
    "longitude": -4.8302,
    "osGrid": "NN262455",
    "elevation": 2736,
    "prominence": null,
    "isolation": null,
    "summit": "Cairn"
  },
  {
    "name": "Beinn Sgulaird South Top",
    "latitude": 56.5543,
    "longitude": -5.1859,
    "osGrid": "NN042448",
    "elevation": 2831,
    "prominence": 256,
    "isolation": 1.02,
    "summit": "Cairn"
  },
  {
    "name": "Meall Garbh",
    "latitude": 56.5583,
    "longitude": -5.1781,
    "osGrid": "NN167367",
    "elevation": 2782,
    "prominence": 197,
    "isolation": 0.41,
    "summit": "Cairn"
  },
  {
    "name": "Beinn Fhionnlaidh East Top",
    "latitude": 56.6016,
    "longitude": -5.0854,
    "osGrid": "NN106497",
    "elevation": 2759,
    "prominence": 151,
    "isolation": null,
    "summit": "Cairn"
  },
  {
    "name": "Aonach Dubh a Ghlinne",
    "latitude": 56.6336,
    "longitude": -5.0667,
    "osGrid": "NN119534",
    "elevation": 2772,
    "prominence": 154,
    "isolation": 0.43,
    "summit": "Cairn"
  },
  {
    "name": "Beinn Ceitlein",
    "latitude": null,
    "longitude": null,
    "osGrid": "NN173488",
    "elevation": 2772,
    "prominence": null,
    "isolation": null,
    "summit": "Cairn"
  },
  {
    "name": "Beinn Ceitlein North Top",
    "latitude": null,
    "longitude": null,
    "osGrid": "NN177492",
    "elevation": 2736,
    "prominence": null,
    "isolation": null,
    "summit": "Cairn"
  },
  {
    "name": "Beinn Ceitlein NE Ridge Top (i)",
    "latitude": null,
    "longitude": null,
    "osGrid": "NN177494",
    "elevation": 2624,
    "prominence": null,
    "isolation": null,
    "summit": "Cairn"
  },
  {
    "name": "Beinn Ceitlein NE Ridge Top (ii)",
    "latitude": null,
    "longitude": null,
    "osGrid": "NN178496",
    "elevation": 2624,
    "prominence": null,
    "isolation": null,
    "summit": "Cairn"
  },
  {
    "name": "Stob Coire na Tulaich",
    "latitude": 56.6455,
    "longitude": -4.9149,
    "osGrid": "NN213542",
    "elevation": 2959,
    "prominence": 95,
    "isolation": 0.29,
    "summit": "Cairn"
  },
  {
    "name": "Stob Dubh North Top",
    "latitude": 56.6439,
    "longitude": -4.9625,
    "osGrid": "NN184541",
    "elevation": 2959,
    "prominence": 72,
    "isolation": 0.48,
    "summit": "Cairn"
  },
  {
    "name": "Aonach Dubh",
    "latitude": 56.6576,
    "longitude": -5.0199,
    "osGrid": "NN149558",
    "elevation": 2920,
    "prominence": 115,
    "isolation": null,
    "summit": "Cairn"
  },
  {
    "name": "Beinn Fhada Far North Top",
    "latitude": 56.6499,
    "longitude": -4.9872,
    "osGrid": "NN169550",
    "elevation": 2700,
    "prominence": 131,
    "isolation": null,
    "summit": "Cairn"
  },
  {
    "name": "Aonach Eagach East Peak",
    "latitude": 56.6798,
    "longitude": -5.0129,
    "osGrid": "NN155582",
    "elevation": 2976,
    "prominence": 109,
    "isolation": null,
    "summit": "Cairn"
  },
  {
    "name": "Aonach Eagach West Peak",
    "latitude": 56.6797,
    "longitude": -5.0158,
    "osGrid": "NN153582",
    "elevation": 2969,
    "prominence": 105,
    "isolation": null,
    "summit": "Cairn"
  },
  {
    "name": "A Chailleach",
    "latitude": 56.6778,
    "longitude": -4.9554,
    "osGrid": "NN189579",
    "elevation": 2963,
    "prominence": 470,
    "isolation": null,
    "summit": "Cairn"
  },
  {
    "name": "Sron Gharbh",
    "latitude": 56.6822,
    "longitude": -4.9766,
    "osGrid": "NN177584",
    "elevation": 2867,
    "prominence": 196,
    "isolation": null,
    "summit": "Cairn"
  },
  {
    "name": "Sron a Choire Odhair Bhig",
    "latitude": 56.6765,
    "longitude": -4.9413,
    "osGrid": null,
    "elevation": 2644,
    "prominence": 59,
    "isolation": null,
    "summit": "Cairn"
  }
]
